[
  {
    "name": "Singapore", 
    "lat": "1.3000", 
    "lng": "103.8000", 
    "country": "Singapore", 
    "iso2": "SG", 
    "admin_name": "", 
    "capital": "primary", 
    "population": "5983000", 
    "population_proper": "5638700"
  }, 
  {
    "name": "Kampong Serangoon Kechil", 
    "lat": "1.3900", 
    "lng": "103.9072", 
    "country": "Singapore", 
    "iso2": "SG", 
    "admin_name": "", 
    "capital": "", 
    "population": "", 
    "population_proper": ""
  }, 
  {
    "name": "Jalan Kayu", 
    "lat": "1.3972", 
    "lng": "103.8719", 
    "country": "Singapore", 
    "iso2": "SG", 
    "admin_name": "", 
    "capital": "", 
    "population": "", 
    "population_proper": ""
  }, 
  {
    "name": "Bukit Sembawang Estate", 
    "lat": "1.3956", 
    "lng": "103.8692", 
    "country": "Singapore", 
    "iso2": "SG", 
    "admin_name": "", 
    "capital": "", 
    "population": "", 
    "population_proper": ""
  }, 
  {
    "name": "Choa Chu Kang New Town", 
    "lat": "1.3833", 
    "lng": "103.7500", 
    "country": "Singapore", 
    "iso2": "SG", 
    "admin_name": "", 
    "capital": "", 
    "population": "", 
    "population_proper": ""
  }, 
  {
    "name": "Keat Hong Village", 
    "lat": "1.3778", 
    "lng": "103.7442", 
    "country": "Singapore", 
    "iso2": "SG", 
    "admin_name": "", 
    "capital": "", 
    "population": "", 
    "population_proper": ""
  }, 
  {
    "name": "Bukit Panjang Estate", 
    "lat": "1.3817", 
    "lng": "103.7525", 
    "country": "Singapore", 
    "iso2": "SG", 
    "admin_name": "", 
    "capital": "", 
    "population": "", 
    "population_proper": ""
  }, 
  {
    "name": "Kampong Cutforth", 
    "lat": "1.3819", 
    "lng": "103.7364", 
    "country": "Singapore", 
    "iso2": "SG", 
    "admin_name": "", 
    "capital": "", 
    "population": "", 
    "population_proper": ""
  }, 
  {
    "name": "Matilda Estate", 
    "lat": "1.3994", 
    "lng": "103.9028", 
    "country": "Singapore", 
    "iso2": "SG", 
    "admin_name": "", 
    "capital": "", 
    "population": "", 
    "population_proper": ""
  }, 
  {
    "name": "Serangoon", 
    "lat": "1.3756", 
    "lng": "103.8972", 
    "country": "Singapore", 
    "iso2": "SG", 
    "admin_name": "", 
    "capital": "", 
    "population": "", 
    "population_proper": ""
  }, 
  {
    "name": "Kampong Pinang", 
    "lat": "1.3811", 
    "lng": "103.8942", 
    "country": "Singapore", 
    "iso2": "SG", 
    "admin_name": "", 
    "capital": "", 
    "population": "", 
    "population_proper": ""
  }, 
  {
    "name": "Kampong Tongkang Pechah", 
    "lat": "1.3900", 
    "lng": "103.8764", 
    "country": "Singapore", 
    "iso2": "SG", 
    "admin_name": "", 
    "capital": "", 
    "population": "", 
    "population_proper": ""
  }, 
  {
    "name": "Kampong Teban", 
    "lat": "1.3786", 
    "lng": "103.9078", 
    "country": "Singapore", 
    "iso2": "SG", 
    "admin_name": "", 
    "capital": "", 
    "population": "", 
    "population_proper": ""
  }, 
  {
    "name": "Kampong Sungai Tengah", 
    "lat": "1.3833", 
    "lng": "103.9000", 
    "country": "Singapore", 
    "iso2": "SG", 
    "admin_name": "", 
    "capital": "", 
    "population": "", 
    "population_proper": ""
  }, 
  {
    "name": "Kangkar", 
    "lat": "1.3761", 
    "lng": "103.9017", 
    "country": "Singapore", 
    "iso2": "SG", 
    "admin_name": "", 
    "capital": "", 
    "population": "", 
    "population_proper": ""
  }, 
  {
    "name": "Kampong Beremban", 
    "lat": "1.3814", 
    "lng": "103.9158", 
    "country": "Singapore", 
    "iso2": "SG", 
    "admin_name": "", 
    "capital": "", 
    "population": "", 
    "population_proper": ""
  }, 
  {
    "name": "Seletar Hills Estate", 
    "lat": "1.3844", 
    "lng": "103.8681", 
    "country": "Singapore", 
    "iso2": "SG", 
    "admin_name": "", 
    "capital": "", 
    "population": "", 
    "population_proper": ""
  }, 
  {
    "name": "Song Hah Estate", 
    "lat": "1.3589", 
    "lng": "103.6647", 
    "country": "Singapore", 
    "iso2": "SG", 
    "admin_name": "", 
    "capital": "", 
    "population": "", 
    "population_proper": ""
  }, 
  {
    "name": "Woodlands New Town", 
    "lat": "1.4363", 
    "lng": "103.7867", 
    "country": "Singapore", 
    "iso2": "SG", 
    "admin_name": "", 
    "capital": "", 
    "population": "", 
    "population_proper": ""
  }, 
  {
    "name": "Mok Peng Hiang Estate", 
    "lat": "1.4456", 
    "lng": "103.7969", 
    "country": "Singapore", 
    "iso2": "SG", 
    "admin_name": "", 
    "capital": "", 
    "population": "", 
    "population_proper": ""
  }, 
  {
    "name": "Jurong Town", 
    "lat": "1.3342", 
    "lng": "103.7228", 
    "country": "Singapore", 
    "iso2": "SG", 
    "admin_name": "", 
    "capital": "", 
    "population": "", 
    "population_proper": ""
  }, 
  {
    "name": "Tay Keng Loon Estate", 
    "lat": "1.4533", 
    "lng": "103.7989", 
    "country": "Singapore", 
    "iso2": "SG", 
    "admin_name": "", 
    "capital": "", 
    "population": "", 
    "population_proper": ""
  }, 
  {
    "name": "Bukit Panjang New Town", 
    "lat": "1.3808", 
    "lng": "103.7625", 
    "country": "Singapore", 
    "iso2": "SG", 
    "admin_name": "", 
    "capital": "", 
    "population": "", 
    "population_proper": ""
  }, 
  {
    "name": "Marsiling", 
    "lat": "1.4411", 
    "lng": "103.7708", 
    "country": "Singapore", 
    "iso2": "SG", 
    "admin_name": "", 
    "capital": "", 
    "population": "", 
    "population_proper": ""
  }, 
  {
    "name": "Kampong Kranji", 
    "lat": "1.4228", 
    "lng": "103.7504", 
    "country": "Singapore", 
    "iso2": "SG", 
    "admin_name": "", 
    "capital": "", 
    "population": "", 
    "population_proper": ""
  }, 
  {
    "name": "Chia Keng", 
    "lat": "1.3600", 
    "lng": "103.8917", 
    "country": "Singapore", 
    "iso2": "SG", 
    "admin_name": "", 
    "capital": "", 
    "population": "", 
    "population_proper": ""
  }, 
  {
    "name": "Jurong West", 
    "lat": "1.3445", 
    "lng": "103.7068", 
    "country": "Singapore", 
    "iso2": "SG", 
    "admin_name": "", 
    "capital": "", 
    "population": "", 
    "population_proper": ""
  }, 
  {
    "name": "Kampong Ulu Jurong", 
    "lat": "1.3500", 
    "lng": "103.7167", 
    "country": "Singapore", 
    "iso2": "SG", 
    "admin_name": "", 
    "capital": "", 
    "population": "", 
    "population_proper": ""
  }, 
  {
    "name": "Somapah Serangoon", 
    "lat": "1.3667", 
    "lng": "103.8833", 
    "country": "Singapore", 
    "iso2": "SG", 
    "admin_name": "", 
    "capital": "", 
    "population": "", 
    "population_proper": ""
  }, 
  {
    "name": "Boon Lay", 
    "lat": "1.3333", 
    "lng": "103.7000", 
    "country": "Singapore", 
    "iso2": "SG", 
    "admin_name": "", 
    "capital": "", 
    "population": "", 
    "population_proper": ""
  }, 
  {
    "name": "Kampong Sireh", 
    "lat": "1.3500", 
    "lng": "103.8833", 
    "country": "Singapore", 
    "iso2": "SG", 
    "admin_name": "", 
    "capital": "", 
    "population": "", 
    "population_proper": ""
  }, 
  {
    "name": "Kampong Bukit Panjang", 
    "lat": "1.3836", 
    "lng": "103.7600", 
    "country": "Singapore", 
    "iso2": "SG", 
    "admin_name": "", 
    "capital": "", 
    "population": "", 
    "population_proper": ""
  }, 
  {
    "name": "Marsiling Estate", 
    "lat": "1.4297", 
    "lng": "103.7675", 
    "country": "Singapore", 
    "iso2": "SG", 
    "admin_name": "", 
    "capital": "", 
    "population": "", 
    "population_proper": ""
  }, 
  {
    "name": "Ong Lee", 
    "lat": "1.3500", 
    "lng": "103.7500", 
    "country": "Singapore", 
    "iso2": "SG", 
    "admin_name": "", 
    "capital": "", 
    "population": "", 
    "population_proper": ""
  }, 
  {
    "name": "Kampong Chai Chee", 
    "lat": "1.3333", 
    "lng": "103.9333", 
    "country": "Singapore", 
    "iso2": "SG", 
    "admin_name": "", 
    "capital": "", 
    "population": "", 
    "population_proper": ""
  }, 
  {
    "name": "Ulu Bedok", 
    "lat": "1.3333", 
    "lng": "103.9333", 
    "country": "Singapore", 
    "iso2": "SG", 
    "admin_name": "", 
    "capital": "", 
    "population": "", 
    "population_proper": ""
  }, 
  {
    "name": "Kampong Pachitan", 
    "lat": "1.3167", 
    "lng": "103.9167", 
    "country": "Singapore", 
    "iso2": "SG", 
    "admin_name": "", 
    "capital": "", 
    "population": "", 
    "population_proper": ""
  }, 
  {
    "name": "Bedok New Town", 
    "lat": "1.3236", 
    "lng": "103.9273", 
    "country": "Singapore", 
    "iso2": "SG", 
    "admin_name": "", 
    "capital": "", 
    "population": "", 
    "population_proper": ""
  }, 
  {
    "name": "Bedok Ville", 
    "lat": "1.3244", 
    "lng": "103.9544", 
    "country": "Singapore", 
    "iso2": "SG", 
    "admin_name": "", 
    "capital": "", 
    "population": "", 
    "population_proper": ""
  }, 
  {
    "name": "Kampong Ladang", 
    "lat": "1.3333", 
    "lng": "103.9000", 
    "country": "Singapore", 
    "iso2": "SG", 
    "admin_name": "", 
    "capital": "", 
    "population": "", 
    "population_proper": ""
  }, 
  {
    "name": "Kampong Reteh", 
    "lat": "1.3333", 
    "lng": "103.9000", 
    "country": "Singapore", 
    "iso2": "SG", 
    "admin_name": "", 
    "capital": "", 
    "population": "", 
    "population_proper": ""
  }, 
  {
    "name": "Kampong Ubi", 
    "lat": "1.3167", 
    "lng": "103.9000", 
    "country": "Singapore", 
    "iso2": "SG", 
    "admin_name": "", 
    "capital": "", 
    "population": "", 
    "population_proper": ""
  }, 
  {
    "name": "Kampong Wak Hassan", 
    "lat": "1.4614", 
    "lng": "103.8364", 
    "country": "Singapore", 
    "iso2": "SG", 
    "admin_name": "", 
    "capital": "", 
    "population": "", 
    "population_proper": ""
  }, 
  {
    "name": "Chong Pang", 
    "lat": "1.4444", 
    "lng": "103.8239", 
    "country": "Singapore", 
    "iso2": "SG", 
    "admin_name": "", 
    "capital": "", 
    "population": "", 
    "population_proper": ""
  }, 
  {
    "name": "Sembawang", 
    "lat": "1.4491", 
    "lng": "103.8185", 
    "country": "Singapore", 
    "iso2": "SG", 
    "admin_name": "", 
    "capital": "", 
    "population": "", 
    "population_proper": ""
  }, 
  {
    "name": "Yio Chu Kang", 
    "lat": "1.3911", 
    "lng": "103.8514", 
    "country": "Singapore", 
    "iso2": "SG", 
    "admin_name": "", 
    "capital": "", 
    "population": "", 
    "population_proper": ""
  }, 
  {
    "name": "Yio Chu Kang Estate", 
    "lat": "1.3897", 
    "lng": "103.8539", 
    "country": "Singapore", 
    "iso2": "SG", 
    "admin_name": "", 
    "capital": "", 
    "population": "", 
    "population_proper": ""
  }, 
  {
    "name": "Ang Mo Kio New Town", 
    "lat": "1.3803", 
    "lng": "103.8397", 
    "country": "Singapore", 
    "iso2": "SG", 
    "admin_name": "", 
    "capital": "", 
    "population": "", 
    "population_proper": ""
  }, 
  {
    "name": "Singapore United Plantation", 
    "lat": "1.3792", 
    "lng": "103.8578", 
    "country": "Singapore", 
    "iso2": "SG", 
    "admin_name": "", 
    "capital": "", 
    "population": "", 
    "population_proper": ""
  }, 
  {
    "name": "Kampong Amoy Quee", 
    "lat": "1.3833", 
    "lng": "103.8500", 
    "country": "Singapore", 
    "iso2": "SG", 
    "admin_name": "", 
    "capital": "", 
    "population": "", 
    "population_proper": ""
  }, 
  {
    "name": "Kampong Lew Lian", 
    "lat": "1.3500", 
    "lng": "103.8667", 
    "country": "Singapore", 
    "iso2": "SG", 
    "admin_name": "", 
    "capital": "", 
    "population": "", 
    "population_proper": ""
  }, 
  {
    "name": "Kampong Kebun Baharu", 
    "lat": "1.3667", 
    "lng": "103.8667", 
    "country": "Singapore", 
    "iso2": "SG", 
    "admin_name": "", 
    "capital": "", 
    "population": "", 
    "population_proper": ""
  }, 
  {
    "name": "Saint Michael’s Estate", 
    "lat": "1.3278", 
    "lng": "103.8608", 
    "country": "Singapore", 
    "iso2": "SG", 
    "admin_name": "", 
    "capital": "", 
    "population": "", 
    "population_proper": ""
  }, 
  {
    "name": "Kam Wak Hassan", 
    "lat": "1.4375", 
    "lng": "103.8306", 
    "country": "Singapore", 
    "iso2": "SG", 
    "admin_name": "", 
    "capital": "", 
    "population": "", 
    "population_proper": ""
  }, 
  {
    "name": "Sungai Simpang", 
    "lat": "1.4381", 
    "lng": "103.8267", 
    "country": "Singapore", 
    "iso2": "SG", 
    "admin_name": "", 
    "capital": "", 
    "population": "", 
    "population_proper": ""
  }, 
  {
    "name": "Teacher’s Housing Estate", 
    "lat": "1.3833", 
    "lng": "103.8286", 
    "country": "Singapore", 
    "iso2": "SG", 
    "admin_name": "", 
    "capital": "", 
    "population": "", 
    "population_proper": ""
  }, 
  {
    "name": "Tanjong Pagar", 
    "lat": "1.2833", 
    "lng": "103.8333", 
    "country": "Singapore", 
    "iso2": "SG", 
    "admin_name": "", 
    "capital": "", 
    "population": "", 
    "population_proper": ""
  }, 
  {
    "name": "Kampong Kopit", 
    "lat": "1.2667", 
    "lng": "103.8333", 
    "country": "Singapore", 
    "iso2": "SG", 
    "admin_name": "", 
    "capital": "", 
    "population": "", 
    "population_proper": ""
  }, 
  {
    "name": "Saga", 
    "lat": "1.2667", 
    "lng": "103.8333", 
    "country": "Singapore", 
    "iso2": "SG", 
    "admin_name": "", 
    "capital": "", 
    "population": "", 
    "population_proper": ""
  }, 
  {
    "name": "Kampong Siren", 
    "lat": "1.3522", 
    "lng": "103.8981", 
    "country": "Singapore", 
    "iso2": "SG", 
    "admin_name": "", 
    "capital": "", 
    "population": "", 
    "population_proper": ""
  }, 
  {
    "name": "Nee Soon Estate", 
    "lat": "1.4028", 
    "lng": "103.8178", 
    "country": "Singapore", 
    "iso2": "SG", 
    "admin_name": "", 
    "capital": "", 
    "population": "", 
    "population_proper": ""
  }, 
  {
    "name": "Kampong Pengkalan Kundor", 
    "lat": "1.4100", 
    "lng": "103.8444", 
    "country": "Singapore", 
    "iso2": "SG", 
    "admin_name": "", 
    "capital": "", 
    "population": "", 
    "population_proper": ""
  }, 
  {
    "name": "Kampong Punggol", 
    "lat": "1.4125", 
    "lng": "103.9103", 
    "country": "Singapore", 
    "iso2": "SG", 
    "admin_name": "", 
    "capital": "", 
    "population": "", 
    "population_proper": ""
  }, 
  {
    "name": "Punggol", 
    "lat": "1.3983", 
    "lng": "103.9090", 
    "country": "Singapore", 
    "iso2": "SG", 
    "admin_name": "", 
    "capital": "", 
    "population": "", 
    "population_proper": ""
  }, 
  {
    "name": "Yew Tee", 
    "lat": "1.3944", 
    "lng": "103.7539", 
    "country": "Singapore", 
    "iso2": "SG", 
    "admin_name": "", 
    "capital": "", 
    "population": "", 
    "population_proper": ""
  }, 
  {
    "name": "Kampong Sungai Blukar", 
    "lat": "1.3881", 
    "lng": "103.9183", 
    "country": "Singapore", 
    "iso2": "SG", 
    "admin_name": "", 
    "capital": "", 
    "population": "", 
    "population_proper": ""
  }, 
  {
    "name": "Kampong Loyang", 
    "lat": "1.3778", 
    "lng": "103.9594", 
    "country": "Singapore", 
    "iso2": "SG", 
    "admin_name": "", 
    "capital": "", 
    "population": "", 
    "population_proper": ""
  }, 
  {
    "name": "Springleaf Park", 
    "lat": "1.3953", 
    "lng": "103.8214", 
    "country": "Singapore", 
    "iso2": "SG", 
    "admin_name": "", 
    "capital": "", 
    "population": "", 
    "population_proper": ""
  }, 
  {
    "name": "Kampong Tebing Terjun", 
    "lat": "1.3333", 
    "lng": "103.7500", 
    "country": "Singapore", 
    "iso2": "SG", 
    "admin_name": "", 
    "capital": "", 
    "population": "", 
    "population_proper": ""
  }, 
  {
    "name": "Kampong Belimbing", 
    "lat": "1.3711", 
    "lng": "103.6919", 
    "country": "Singapore", 
    "iso2": "SG", 
    "admin_name": "", 
    "capital": "", 
    "population": "", 
    "population_proper": ""
  }, 
  {
    "name": "West Coast Village", 
    "lat": "1.3167", 
    "lng": "103.7500", 
    "country": "Singapore", 
    "iso2": "SG", 
    "admin_name": "", 
    "capital": "", 
    "population": "", 
    "population_proper": ""
  }, 
  {
    "name": "Kampong Sungai Pandan", 
    "lat": "1.3167", 
    "lng": "103.7500", 
    "country": "Singapore", 
    "iso2": "SG", 
    "admin_name": "", 
    "capital": "", 
    "population": "", 
    "population_proper": ""
  }, 
  {
    "name": "Yishun New Town", 
    "lat": "1.4300", 
    "lng": "103.8350", 
    "country": "Singapore", 
    "iso2": "SG", 
    "admin_name": "", 
    "capital": "", 
    "population": "", 
    "population_proper": ""
  }, 
  {
    "name": "Kampong Pengkalan Petai", 
    "lat": "1.4033", 
    "lng": "103.8500", 
    "country": "Singapore", 
    "iso2": "SG", 
    "admin_name": "", 
    "capital": "", 
    "population": "", 
    "population_proper": ""
  }, 
  {
    "name": "Sarang Rimau", 
    "lat": "1.2597", 
    "lng": "103.8089", 
    "country": "Singapore", 
    "iso2": "SG", 
    "admin_name": "", 
    "capital": "", 
    "population": "", 
    "population_proper": ""
  }
]